{
	"flyer": {"name": "Singapore Flyer", "latLng": "1.289524, 103.863223"},
	"vivo": {"name": "Vivo City", "latLng": "1.264625, 103.822169" },
	"rws": {"name": "Resorts World Sentosa", "latLng": "1.255490, 103.821843" },
	"mbs": {"name": "Marina Bay Sands", "latLng": "1.284235, 103.860886" },
	"temple": {"name": "Buddha Tooth Relic Temple", "latLng": "1.281603, 103.844334"},
	"zoo": {"name": "The Singapore Zoooooo", "latLng": "1.404446, 103.793050" }
}